City_ID,City,Lat,Lng,Max Temp,Humidity,Cloudiness,Wind Speed,Country,Date
0,badger,64.8,-147.5333,15.55,52,75,2.57,US,1694653987
1,kingston,17.997,-76.7936,30.53,74,40,3.09,JM,1694653976
2,grytviken,-54.2811,-36.5092,-10.21,67,31,2.94,GS,1694653987
3,puerto natales,-51.7236,-72.4875,1.53,99,100,0.42,CL,1694653988
4,korla,41.7597,86.1469,21.66,37,39,4.77,CN,1694653988
5,edinburgh of the seven seas,-37.0676,-12.3116,14.85,85,91,18.04,SH,1694653988
6,taro,-8.3862,115.28,22.0,75,81,1.89,ID,1694653988
7,ribeira grande,38.5167,-28.7,23.76,96,83,4.02,PT,1694653988
8,constantia,44.1833,28.65,18.38,72,7,5.85,RO,1694653989
9,blackmans bay,-43.0167,147.3167,18.62,71,100,2.07,AU,1694653989
10,thompson,55.7435,-97.8558,16.09,77,75,1.54,CA,1694653989
11,vernon,50.2581,-119.2691,25.52,35,7,0.51,CA,1694653989
12,alenquer,-1.9417,-54.7383,28.39,42,57,1.48,BR,1694653879
13,adamstown,-25.066,-130.1015,17.62,63,1,6.86,PN,1694653990
14,sola,-13.8833,167.55,24.37,79,100,5.53,VU,1694653990
15,port-aux-francais,-49.35,70.2167,1.91,74,20,15.36,TF,1694653990
16,east london,-33.0153,27.9116,20.41,41,100,4.47,ZA,1694653990
17,nyurba,63.2842,118.3319,1.95,97,100,4.68,RU,1694653991
18,kodiak,57.79,-152.4072,11.73,66,0,2.06,US,1694653991
19,albany,42.6001,-73.9662,17.71,90,3,2.12,US,1694653991
20,bethel,41.3712,-73.414,21.38,85,100,0.0,US,1694653747
21,la passe,45.5549,-0.8967,15.55,82,0,1.24,FR,1694653991
22,beledweyne,4.7358,45.2036,24.28,75,30,7.51,SO,1694653992
23,waitangi,-43.9535,-176.5597,13.79,79,39,4.47,NZ,1694653992
24,san nicolas,18.1725,120.5953,29.95,74,75,1.03,PH,1694653992
25,longyearbyen,78.2186,15.6401,1.91,75,75,7.72,SJ,1694653992
26,klaksvik,62.2266,-6.589,9.51,77,100,11.96,FO,1694653993
27,bocaiuva,-17.1078,-43.815,24.84,44,0,1.72,BR,1694653993
28,jamestown,42.097,-79.2353,16.77,94,0,3.09,US,1694653993
29,alo,7.4178,6.7371,23.09,98,100,1.36,NG,1694653993
30,labasa,-16.4167,179.3833,28.83,66,97,3.82,FJ,1694653993
31,mar del plata,-38.0023,-57.5575,10.61,80,1,5.36,AR,1694653750
32,port saint john's,-31.6229,29.5448,17.13,63,0,3.82,ZA,1694653994
33,carnarvon,-24.8667,113.6333,20.4,61,0,3.68,AU,1694653994
34,trancas,-26.2314,-65.2803,11.53,31,88,1.36,AR,1694653995
35,kapuskasing,49.4169,-82.4331,11.05,81,75,2.06,CA,1694653995
36,nakatsugawa,35.4833,137.5,28.39,66,86,2.22,JP,1694653995
37,udachny,66.4167,112.4,3.03,80,37,3.25,RU,1694653995
38,krasnokamsk,58.0802,55.7541,6.09,83,93,0.65,RU,1694653996
39,saipan,15.1355,145.701,31.39,74,40,3.6,MP,1694653996
40,aykhal,66.0,111.5,1.85,73,19,2.6,RU,1694653996
41,yellowknife,62.456,-114.3525,16.98,74,100,2.06,CA,1694653996
42,afaahiti,-17.75,-149.2833,25.93,73,96,10.43,PF,1694653997
43,cabedelo,-6.9811,-34.8339,23.37,85,74,6.03,BR,1694653997
44,papatowai,-46.5619,169.4708,12.03,75,43,8.59,NZ,1694653997
45,san patricio,28.017,-97.5169,31.4,57,0,5.46,US,1694653997
46,kone,-21.0595,164.8658,19.71,88,100,2.7,NC,1694653514
47,georgetown,5.4112,100.3354,28.96,74,20,1.54,MY,1694653998
48,tukrah,32.5341,20.5791,23.36,67,0,3.97,LY,1694653998
49,carbonear,47.7332,-53.2148,16.35,96,14,2.69,CA,1694653998
50,edson,53.5835,-116.4356,16.08,31,0,6.69,CA,1694653998
51,atafu village,-8.5421,-172.5159,28.56,77,21,6.2,TK,1694653999
52,aasiaat,68.7098,-52.8699,4.86,71,100,7.31,GL,1694653999
53,sao joao da barra,-21.6403,-41.0511,22.77,86,0,12.01,BR,1694653999
54,talnakh,69.4865,88.3972,10.67,98,100,6.58,RU,1694653999
55,wailua homesteads,22.0669,-159.378,28.24,81,100,4.63,US,1694654000
56,belyy yar,53.6039,91.3903,8.94,93,0,0.0,RU,1694654000
57,castillos,-34.1667,-53.8333,9.2,93,100,3.67,UY,1694654000
58,port mathurin,-19.6833,63.4167,22.34,73,100,6.19,MU,1694654000
59,bairnsdale,-37.8333,147.6167,22.81,43,93,1.34,AU,1694654001
60,mitsamiouli,-11.3847,43.2844,24.69,73,0,2.65,KM,1694654001
61,tabou,4.423,-7.3528,24.57,91,100,5.27,CI,1694654001
62,hede,33.7681,120.2517,24.39,78,100,5.28,CN,1694654001
63,batticaloa,7.7102,81.6924,26.26,79,100,2.22,LK,1694654001
64,iqaluit,63.7506,-68.5145,2.61,64,75,10.29,CA,1694654002
65,el granada,37.5027,-122.4694,27.8,77,100,8.23,US,1694654002
66,gadzhiyevo,69.2551,33.3362,6.61,83,100,2.98,RU,1694654002
67,dunedin,-45.8742,170.5036,16.71,38,93,5.89,NZ,1694653980
68,herceg novi,42.4531,18.5375,20.49,100,0,1.54,ME,1694654003
69,port elizabeth,-33.918,25.5701,16.16,72,0,15.43,ZA,1694654003
70,dryden,49.7833,-92.7503,12.16,62,0,3.09,CA,1694654003
71,sersheim,48.9667,9.0167,17.8,90,3,1.01,DE,1694654003
72,bel ombre,-4.6167,55.4167,26.91,83,40,5.66,SC,1694654003
73,bilibino,68.0546,166.4372,7.09,55,62,4.28,RU,1694654004
74,puerto ayora,-0.7393,-90.3518,24.19,96,47,2.68,EC,1694654004
75,isafjordur,66.0755,-23.124,6.42,62,50,1.37,IS,1694654004
76,slave lake,55.2834,-114.769,14.99,63,100,8.23,CA,1694654004
77,mount isa,-20.7333,139.5,26.87,28,0,7.2,AU,1694654005
78,karachi,24.9056,67.0822,26.9,83,40,3.09,PK,1694653886
79,college,64.8569,-147.8028,15.6,54,75,2.57,US,1694654005
80,asau,46.4333,26.4,14.6,63,18,2.34,RO,1694654005
81,polyarnyy,69.1989,33.4478,6.78,83,100,3.63,RU,1694654005
82,fort mcmurray,56.7268,-111.381,21.77,30,0,8.75,CA,1694653512
83,bengkulu,-3.8004,102.2655,25.35,82,30,3.52,ID,1694654006
84,bubaque,11.2833,-15.8333,27.67,83,85,3.67,GW,1694654006
85,hawaiian paradise park,19.5933,-154.9731,28.35,72,5,1.79,US,1694654006
86,manokwari,-0.8667,134.0833,25.29,86,100,1.0,ID,1694654006
87,jayapura,-2.5333,140.7,30.66,79,95,1.23,ID,1694654007
88,gizo,-8.103,156.8419,26.27,82,81,9.31,SB,1694654007
89,dampit,-8.2116,112.7493,24.62,67,56,3.58,ID,1694654007
90,iskateley,67.6803,53.1512,14.42,86,100,8.63,RU,1694654007
91,san luis de la loma,17.2706,-100.8939,28.67,85,70,3.65,MX,1694654008
92,kill devil hills,36.0307,-75.676,24.99,89,0,0.0,US,1694654008
93,port lincoln,-34.7333,135.8667,23.41,29,100,11.97,AU,1694654008
94,la ronge,55.1001,-105.2842,20.12,55,100,2.57,CA,1694654008
95,ushuaia,-54.8,-68.3,-0.45,89,11,1.96,AR,1694653792
96,tinajo,29.0788,-13.7081,22.49,73,0,5.14,ES,1694654009
97,sakaiminato,35.55,133.2333,24.99,100,75,1.54,JP,1694654009
98,queenstown,-31.8976,26.8753,16.26,40,0,8.96,ZA,1694654009
99,bac lieu,9.285,105.7244,28.4,74,80,4.62,VN,1694654009
100,antsiranana,-12.2787,49.2917,21.96,81,9,6.28,MG,1694654010
101,tumbi,-5.0667,32.7333,20.72,57,0,4.56,TZ,1694654010
102,akhtubinsk,48.2795,46.1722,12.45,71,98,0.99,RU,1694654010
103,huntsville,34.7304,-86.5861,24.9,67,75,3.09,US,1694653949
104,joniskis,56.2403,23.6153,17.51,98,100,2.03,LT,1694654011
105,kavaratti,10.5669,72.642,27.98,78,100,7.32,IN,1694654011
106,lihue,21.9789,-159.3672,27.58,81,100,4.63,US,1694653755
107,vengerovo,55.6848,76.7471,6.83,94,29,2.95,RU,1694654011
108,guangyuan,32.442,105.823,21.09,88,99,0.18,CN,1694654011
109,ararat,39.8317,44.7049,11.19,75,2,1.9,AM,1694653915
110,nuku'alofa,-21.1333,-175.2,26.19,73,75,6.17,TO,1694653994
111,margaret river,-33.95,115.0667,14.6,67,100,7.81,AU,1694654012
112,daru,-9.0763,143.2092,25.77,77,83,8.44,PG,1694654012
113,tiksi,71.6872,128.8694,5.28,86,100,0.79,RU,1694654012
114,dogondoutchi,13.6393,4.0287,28.81,65,100,4.39,NE,1694654013
115,zardob,40.2183,47.7083,16.67,86,70,2.36,AZ,1694654013
116,happy valley-goose bay,53.3168,-60.3315,13.17,82,75,1.54,CA,1694654013
117,tura,25.5198,90.2201,24.18,91,5,2.24,IN,1694654013
118,saint-pierre,-21.3393,55.4781,19.82,64,0,3.09,RE,1694654014
119,holualoa,19.6228,-155.9522,27.91,71,75,5.14,US,1694654014
120,santa cruz,-17.8,-63.1667,18.7,37,75,6.69,BO,1694653916
121,turpan,42.9333,89.1667,26.1,31,9,1.57,CN,1694654014
122,monguno,12.6786,13.6079,25.93,78,100,5.27,NG,1694654015
123,uturoa,-16.7333,-151.4333,25.22,78,87,9.91,PF,1694654015
124,dalmatovo,56.26,62.9362,10.98,80,100,2.75,RU,1694654015
125,rongelap,11.1635,166.8941,28.49,78,7,6.01,MH,1694654015
126,novyy urgal,51.0736,132.5642,7.86,82,100,1.53,RU,1694654016
127,buka,40.8108,69.1986,13.0,41,0,1.95,UZ,1694654016
128,papao,-17.75,-149.55,26.82,75,81,11.71,PF,1694654016
129,hengyang,26.8881,112.615,21.62,95,100,1.76,CN,1694654016
130,seminole,28.7086,-81.2081,28.05,91,0,1.54,US,1694654016
131,kuraymah,18.55,31.85,32.11,25,81,5.89,SD,1694654017
132,yuzhno-kurilsk,44.0306,145.8556,17.01,96,100,1.88,RU,1694654017
133,lebu,-37.6167,-73.65,10.73,95,100,11.1,CL,1694654017
134,malango,-2.9627,119.9001,25.27,51,66,1.63,ID,1694654018
135,douentza,14.9951,-2.9517,30.58,54,100,3.1,ML,1694654018
136,vilyuysk,63.7553,121.6247,3.08,96,100,3.8,RU,1694654018
137,touros,-5.1989,-35.4608,24.83,83,33,6.57,BR,1694654018
138,arraial do cabo,-22.9661,-42.0278,21.98,88,0,12.4,BR,1694654018
139,juneau,58.3019,-134.4197,12.0,90,100,8.75,US,1694653790
140,qaqortoq,60.7167,-46.0333,4.77,69,100,2.01,GL,1694654019
141,hailar,49.2,119.7,11.91,45,96,1.54,CN,1694654019
142,tvoroyri,61.5556,-6.8111,10.48,77,100,13.56,FO,1694654019
143,tofol,5.3248,163.0078,28.83,76,87,7.01,FM,1694654019
144,mirny,62.5353,113.9611,1.8,93,100,5.81,RU,1694654020
145,lompoc,34.6391,-120.4579,22.79,88,100,5.14,US,1694654020
146,vorgashor,67.5833,63.95,8.57,87,48,6.52,RU,1694654020
147,kalmunai,7.4167,81.8167,26.24,77,100,4.48,LK,1694654020
148,kangding,30.0513,101.9603,16.37,70,10,1.91,CN,1694654021
149,glace bay,46.1969,-59.957,19.49,96,100,0.89,CA,1694654021
150,caconda,-13.7333,15.0667,17.42,27,11,1.52,AO,1694654021
151,petropavlovsk-kamchatsky,53.0452,158.6483,20.33,68,75,1.0,RU,1694654021
152,callao,-12.0667,-77.15,18.73,82,100,7.2,PE,1694654021
153,ilulissat,69.2167,-51.1,8.01,61,100,6.17,GL,1694654022
154,caleta de carquin,-11.0925,-77.6267,18.63,84,48,6.18,PE,1694654022
155,st. john's,47.5649,-52.7093,16.1,97,100,3.6,CA,1694653930
156,marchena,37.329,-5.4168,22.53,68,8,1.01,ES,1694654022
157,kapa'a,22.0752,-159.319,28.99,80,100,4.63,US,1694654022
158,westport,41.1415,-73.3579,22.88,91,40,0.45,US,1694654023
159,sitia,35.2,26.0986,24.43,63,0,6.1,GR,1694654023
160,kailua-kona,19.6406,-155.9956,29.98,70,75,5.14,US,1694653769
161,nouadhibou,20.931,-17.0347,22.99,73,8,6.17,MR,1694654023
162,veraval,20.9,70.3667,26.49,87,100,3.67,IN,1694654024
163,ashland,40.8167,-82.2665,14.43,92,40,2.71,US,1694654024
164,yashkul',46.1711,45.3435,17.81,47,91,2.2,RU,1694654024
165,san andres,12.5847,-81.7006,30.01,74,20,2.57,CO,1694654024
166,simanggang,1.2472,111.4528,26.99,89,20,2.06,MY,1694654024
167,tanumah,27.1,44.1333,28.75,16,100,4.28,SA,1694654025
168,yei,4.095,30.6779,18.74,98,97,1.83,SS,1694654025
169,zheshart,62.0731,49.5733,8.44,97,5,2.19,RU,1694654025
170,urumqi,43.801,87.6005,15.53,67,0,3.0,CN,1694654025
171,nieuw amsterdam,5.8833,-55.0833,28.09,83,29,3.87,SR,1694654025
172,bereket,39.2446,55.5154,20.06,32,41,4.48,TM,1694654026
173,katsuura,35.1333,140.3,27.77,76,7,3.22,JP,1694654026
174,olonkinbyen,70.9221,-8.7187,3.99,74,24,5.47,SJ,1694654026
175,igarka,67.4667,86.5833,11.46,84,100,6.56,RU,1694654026
176,rawson,-43.3002,-65.1023,13.67,38,100,7.96,AR,1694654027
177,sibolga,1.7427,98.7792,26.18,87,72,0.21,ID,1694654027
178,torquay,50.4638,-3.5143,12.74,92,86,0.89,GB,1694654027
179,altai,46.3722,96.2583,7.88,63,7,2.13,MN,1694654027
180,al jawf,29.5,38.75,23.31,60,0,4.49,SA,1694654028
181,nagqu,31.5,92.0,3.52,66,0,1.32,CN,1694654028
182,pacific grove,36.6177,-121.9166,19.1,91,100,5.14,US,1694654005
183,chibougamau,49.9168,-74.3659,12.06,92,41,1.32,CA,1694653817
184,qarazhal,48.0078,70.7903,10.76,70,88,2.09,KZ,1694654010
185,egilsstadir,65.2653,-14.3948,-1.05,93,0,2.06,IS,1694654029
186,portland,45.5234,-122.6762,27.31,48,20,4.63,US,1694653730
187,sievi,63.9,24.5,7.42,86,100,0.76,FI,1694654029
188,karratha,-20.7377,116.8463,24.78,38,0,3.2,AU,1694653901
189,mount pearl,47.5166,-52.7813,15.64,97,100,3.6,CA,1694654029
190,greenville,35.6127,-77.3663,22.85,97,40,0.0,US,1694654030
191,alice town,25.7167,-79.3,29.05,71,0,6.44,BS,1694654030
192,haiku-pauwela,20.9219,-156.3051,32.01,46,40,9.26,US,1694654030
193,lycksele,64.5954,18.6735,0.93,93,0,2.57,SE,1694654030
194,ust-nera,64.5667,143.2,4.7,91,99,1.8,RU,1694654031
195,alice springs,-23.7,133.8833,26.75,13,0,6.69,AU,1694654031
196,remire-montjoly,4.9167,-52.2667,26.02,89,0,1.54,GF,1694654031
197,tual,-5.6667,132.75,25.38,87,39,8.94,ID,1694654031
198,tumbes,-3.5667,-80.4414,23.97,83,40,3.6,PE,1694654031
199,sorong,-0.8833,131.25,27.34,75,64,5.1,ID,1694654032
200,mil'kovo,55.6078,37.7956,12.41,63,85,1.96,RU,1694654032
201,invercargill,-46.4,168.35,10.57,87,100,4.47,NZ,1694654032
202,benjamin hill,30.1667,-111.1,32.15,24,0,7.28,MX,1694654032
203,anadyr,64.75,177.4833,8.28,81,75,2.0,RU,1694654033
204,tolanaro,-25.0319,46.9987,20.3,85,98,4.44,MG,1694654033
205,ji'an,27.1172,114.9793,21.71,98,100,2.52,CN,1694654033
206,vila velha,-20.3297,-40.2925,24.41,82,75,4.63,BR,1694654033
207,mount gambier,-37.8333,140.7667,20.79,49,100,5.22,AU,1694654033
208,trairi,-3.2778,-39.2689,25.9,84,10,5.43,BR,1694654034
209,moroni,-11.7022,43.2551,23.8,80,4,3.41,KM,1694654034
210,west island,-12.1568,96.8225,25.99,78,40,5.14,CC,1694653784
211,kant,27.8,79.8,27.13,85,86,2.23,IN,1694654034
212,galliano,29.4422,-90.2992,29.0,70,0,0.0,US,1694654035
213,dickinson,29.4608,-95.0513,31.16,83,75,3.09,US,1694653948
214,kiunga,-6.1219,141.2906,26.67,72,92,3.02,PG,1694654035
215,ponta delgada,37.7333,-25.6667,23.99,88,40,2.06,PT,1694654035
216,berekum,7.4534,-2.584,21.82,98,100,2.8,GH,1694654036
217,murzuq,25.9155,13.9184,24.59,28,0,4.89,LY,1694654036
218,vallenar,-28.5708,-70.7581,17.06,33,13,1.43,CL,1694654036
219,carlisle,40.2015,-77.1889,20.53,59,4,2.39,US,1694654036
220,kasongo,-4.45,26.6667,20.42,92,99,0.8,CD,1694654037
221,ratnagiri,16.9833,73.3,25.23,85,42,0.46,IN,1694654037
222,laboulaye,-34.1266,-63.3912,12.8,34,100,3.64,AR,1694654037
223,khandyga,62.6667,135.6,8.2,69,86,2.33,RU,1694654037
224,okhotsk,59.3833,143.3,8.95,70,81,4.17,RU,1694654038
225,codrington,-38.2667,141.9667,20.59,60,100,7.28,AU,1694654038
226,sinabang,2.4803,96.3801,26.27,85,100,3.87,ID,1694654038
227,colonia,50.9333,6.95,15.48,87,0,1.54,DE,1694654005
228,chadron,42.8294,-102.9999,22.14,44,0,4.63,US,1694654039
229,gulu,2.7746,32.299,18.65,94,100,0.99,UG,1694654039
230,stanley,54.868,-1.6985,12.51,86,75,4.63,GB,1694653922
231,zadonsk,52.3904,38.9261,12.4,63,83,2.26,RU,1694654039
232,kota,25.1833,75.8333,25.61,83,93,2.82,IN,1694653903
233,klyuchi,52.2667,79.1667,11.85,93,100,2.65,RU,1694654040
234,pitimbu,-7.4706,-34.8086,23.33,85,27,5.7,BR,1694654040
235,rybnoye,54.7256,39.5119,11.33,86,25,1.68,RU,1694654040
236,joshimath,30.5667,79.5667,22.18,82,89,0.05,IN,1694654040
237,plymouth,41.8334,-70.8328,22.71,85,75,0.0,US,1694654040
238,tadine,-21.55,167.8833,22.16,69,99,9.83,NC,1694654041
239,iquique,-20.2208,-70.1431,18.02,79,24,1.76,CL,1694654041
240,comodoro rivadavia,-45.8667,-67.5,12.92,33,0,10.8,AR,1694653449
241,salekhard,66.53,66.6019,9.61,78,5,5.04,RU,1694654041
242,pariaman,-0.619,100.12,25.03,82,53,2.24,ID,1694654042
243,nova sintra,14.8667,-24.7167,24.75,80,88,2.97,CV,1694654042
244,susuman,62.7833,148.1667,3.72,81,100,2.55,RU,1694654042
245,akureyri,65.6835,-18.0878,5.02,83,39,0.99,IS,1694654043
246,akbarpur,26.4167,82.55,27.34,85,23,2.87,IN,1694654043
247,quesnel,52.9999,-122.5029,19.28,34,0,2.06,CA,1694654043
248,sarandi del yi,-33.35,-55.6333,6.8,71,100,3.14,UY,1694654043
249,bodaybo,57.8506,114.1933,7.88,74,29,3.85,RU,1694654044
250,whitehorse,60.7161,-135.0538,14.34,43,75,8.23,CA,1694654044
251,nolinsk,57.5596,49.9363,12.62,72,91,1.41,RU,1694654044
252,brandon,27.9378,-82.2859,30.03,72,0,2.57,US,1694653957
253,barra de santo antonio,-9.4047,-35.5072,22.6,86,28,5.29,BR,1694654044
254,gueckedou,8.6667,-10.25,21.45,99,100,1.31,GN,1694654045
255,tazovsky,67.4667,78.7,8.48,83,20,4.81,RU,1694654045
256,yoloten,37.2989,62.3597,17.76,31,0,3.66,TM,1694654045
257,beloyarskiy,63.7119,66.6722,7.78,90,93,2.24,RU,1694654045
258,greymouth,-42.4667,171.2,11.47,88,100,9.2,NZ,1694654046
259,medicine hat,50.0501,-110.6683,22.24,41,40,5.14,CA,1694654046
260,hastings,50.8552,0.5729,15.85,47,52,1.73,GB,1694654046
261,khuzdar,27.7384,66.6434,24.11,65,47,1.26,PK,1694654046
262,punta arenas,-53.15,-70.9167,3.06,81,75,3.6,CL,1694654046
263,newman,37.3138,-121.0208,32.38,38,0,1.79,US,1694654047
264,flying fish cove,-10.4217,105.6791,25.82,73,75,7.2,CX,1694654047
265,leava,-14.3,-178.1667,27.94,72,58,6.47,WF,1694654047
266,sydney,-33.8679,151.2073,24.77,47,0,3.09,AU,1694653376
267,hadibu,12.65,54.0333,26.77,81,99,8.11,YE,1694654048
268,sisimiut,66.9395,-53.6735,4.38,96,100,9.1,GL,1694654048
269,nuuk,64.1835,-51.7216,6.34,93,100,23.15,GL,1694654048
270,plettenberg bay,-34.0527,23.3716,13.51,75,86,5.57,ZA,1694654048
271,swan hill,-35.3378,143.5544,24.73,29,95,4.32,AU,1694654048
272,diapaga,12.0708,1.7889,23.47,88,59,1.97,BF,1694654049
273,tottori,35.5,134.2333,28.04,69,75,2.57,JP,1694654049
274,utrik,11.2278,169.8474,28.63,76,17,5.84,MH,1694654049
275,er regueb,34.8593,9.7865,23.25,69,18,1.89,TN,1694654049
276,saldanha,-33.0117,17.9442,13.12,80,100,4.52,ZA,1694654050
277,berwick-upon-tweed,55.7833,-2.0,13.13,79,100,6.38,GB,1694654050
278,mahajanga,-15.7167,46.3167,22.28,66,5,3.43,MG,1694654050
279,claveria,18.6074,121.0832,28.66,77,21,2.4,PH,1694654050
280,astanajapura,-6.8017,108.6311,28.19,58,66,5.69,ID,1694654050
281,fale old settlement,-9.3852,-171.2468,28.39,77,8,6.18,TK,1694654051
282,pacocha,-17.5833,-71.3333,17.26,80,17,2.22,PE,1694654051
283,naze,28.3667,129.4833,29.51,78,40,4.23,JP,1694654051
284,viqueque,-8.8673,126.3658,28.08,60,57,4.2,TL,1694654051
285,fort bragg,35.139,-79.006,24.91,84,40,0.0,US,1694654051
286,chambersburg,39.9376,-77.6611,22.02,62,65,2.24,US,1694653802
287,ancud,-41.8697,-73.8203,10.57,96,100,10.79,CL,1694654052
288,burang,30.25,81.1667,9.29,81,14,1.18,CN,1694653937
289,new norfolk,-42.7826,147.0587,19.28,46,100,1.23,AU,1694654052
290,altinopolis,-21.0256,-47.3739,25.64,30,93,1.61,BR,1694654053
291,xichang,27.8964,102.2634,17.93,89,68,0.59,CN,1694654053
292,outjo,-20.1167,16.15,17.42,19,0,1.95,NA,1694654053
293,clovis,36.8252,-119.7029,33.8,22,20,4.12,US,1694653880
294,labrador city,52.9463,-66.9114,10.13,98,100,2.91,CA,1694653810
295,piti village,13.4626,144.6933,31.49,78,40,3.6,GU,1694654054
296,pangkalanbuun,-2.6833,111.6167,28.44,66,100,2.87,ID,1694654054
297,laguna,38.421,-121.4238,34.97,32,0,3.6,US,1694654054
298,ambovombe,-25.1667,46.0833,19.54,84,64,7.17,MG,1694654054
299,zhezqazghan,47.7833,67.7667,5.32,93,0,4.0,KZ,1694654054
300,motueka,-41.1333,173.0167,15.05,58,100,2.6,NZ,1694654055
301,port alfred,-33.5906,26.891,16.77,70,6,4.47,ZA,1694654055
302,felipe carrillo puerto,19.5833,-88.05,25.96,86,54,1.49,MX,1694654055
303,viedma,-40.8135,-62.9967,10.59,49,99,4.86,AR,1694654055
304,tocopilla,-22.092,-70.1979,19.46,59,0,5.01,CL,1694654056
305,morwell,-38.2333,146.4,24.11,25,89,0.55,AU,1694654056
306,badr hunayn,23.7829,38.7905,31.59,23,37,0.39,SA,1694653756
307,san ignacio de velasco,-16.3667,-60.95,16.0,81,100,3.84,BO,1694654056
308,lexington,37.9887,-84.4777,19.41,53,0,2.06,US,1694653829
309,bikenibeu village,1.3673,173.1241,31.98,66,20,2.06,KI,1694654057
310,ungsang-nodongjagu,42.3578,130.4622,18.87,66,0,0.45,KP,1694654057
311,amungan,15.3652,119.9582,28.59,74,100,2.26,PH,1694654057
312,kharan,28.5833,65.4167,27.01,32,4,3.05,PK,1694654057
313,bredasdorp,-34.5322,20.0403,10.65,73,100,4.8,ZA,1694654058
314,broome,42.2506,-75.833,15.94,87,0,0.45,US,1694654058
315,dudinka,69.4058,86.1778,10.9,89,100,8.94,RU,1694654059
316,haradok,55.4624,29.9816,12.53,59,68,4.54,BY,1694654059
317,fortuna,40.5982,-124.1573,20.52,78,0,6.17,US,1694654060
318,kuala tungkal,-0.8167,103.4667,26.72,74,12,4.31,ID,1694654060
319,keflavik,64.0049,-22.5624,8.24,76,75,4.12,IS,1694654060
320,tsiombe,-25.3,45.4833,19.62,83,97,6.15,MG,1694654060
321,supe,-10.8,-77.7333,18.37,84,42,4.91,PE,1694654061
322,namibe,-15.1961,12.1522,15.62,83,95,2.18,AO,1694654061
323,navirai,-23.065,-54.1906,14.79,91,100,3.45,BR,1694654061
324,funadhoo,6.15,73.2667,28.09,76,100,5.15,MV,1694654061
325,liboro,13.8245,122.7295,27.65,81,97,1.32,PH,1694654061
326,cill airne,52.05,-9.5167,13.87,97,100,1.54,IE,1694654062
327,enewetak,11.3474,162.3373,29.09,76,69,7.46,MH,1694654062
328,colares,38.7992,-9.4469,23.52,67,12,9.83,PT,1694654062
329,ellsworth,44.5434,-68.4195,20.16,97,100,2.06,US,1694654062
330,nemuro,43.3236,145.575,17.07,99,100,4.91,JP,1694654062
331,toliara,-23.35,43.6667,20.9,74,0,7.01,MG,1694654063
332,linqiong,30.4159,103.4609,23.9,73,3,0.56,CN,1694654063
333,merritt island,28.5392,-80.672,29.49,83,20,2.06,US,1694654063
334,huazhou,21.6333,110.5833,26.94,86,100,2.1,CN,1694654063
335,geneina,13.45,22.45,22.62,75,51,3.47,SD,1694654064
336,yanam,16.7333,82.2167,24.88,85,100,2.85,IN,1694654064
337,christchurch,-43.5333,172.6333,16.64,39,20,3.6,NZ,1694653461
338,tonghae,37.5439,129.1069,21.4,95,100,4.68,KR,1694654064
339,lensk,60.7253,114.9278,4.09,82,100,4.59,RU,1694654064
340,smirnykh,49.75,142.8333,17.87,46,100,4.72,RU,1694654065
341,jiuquan,39.7432,98.5174,18.17,34,95,1.39,CN,1694653851
342,carmo do paranaiba,-19.0008,-46.3161,21.71,41,0,1.82,BR,1694654065
343,chui,-33.6971,-53.4616,10.02,90,100,4.61,UY,1694654065
344,salalah,17.0151,54.0924,26.2,87,89,2.18,OM,1694654066
345,hermanus,-34.4187,19.2345,12.35,79,100,7.47,ZA,1694654066
346,colonia menno,-22.3667,-59.8167,15.37,64,87,1.91,PY,1694654066
347,crane,31.3974,-102.3501,26.13,54,4,4.59,US,1694654066
348,walvis bay,-22.9575,14.5053,12.27,89,0,5.89,NA,1694654066
349,manta,-0.95,-80.7333,24.88,83,75,4.63,EC,1694654067
350,gewane,10.1664,40.6453,29.02,47,93,2.06,ET,1694654067
351,cabo san lucas,22.8909,-109.9124,33.12,74,0,3.6,MX,1694653615
352,zeya,53.75,127.2667,10.99,59,7,2.14,RU,1694654067
353,borgarnes,64.5383,-21.9206,8.03,77,100,2.51,IS,1694654067
354,kuanda,56.3161,116.0806,8.81,81,100,2.22,RU,1694654068
355,maintirano,-18.0667,44.0167,24.74,81,98,2.32,MG,1694654068
356,newberry,34.2746,-81.6187,24.45,93,90,3.24,US,1694654068
357,nova xavantina,-14.6667,-52.35,29.73,27,0,1.09,BR,1694654068
358,san julian,21.0167,-102.1667,18.87,32,3,3.13,MX,1694654069
359,las varillas,-31.8721,-62.7195,11.29,38,3,3.5,AR,1694654069
360,kokopo,-4.352,152.2633,29.38,66,76,7.08,PG,1694654069
361,guerrero negro,27.9769,-114.0611,23.48,63,0,7.13,MX,1694654069
362,aconibe,1.2968,10.9369,19.76,99,88,1.14,GQ,1694654069
363,huedin,46.8667,23.05,12.23,50,77,2.88,RO,1694654070
364,macau,22.2006,113.5461,28.81,94,40,3.09,MO,1694654070
365,brisas de zicatela,15.8369,-97.0419,29.29,58,100,0.0,MX,1694654070
366,todos santos,23.45,-110.2167,33.5,81,84,2.25,MX,1694654070
367,niquelandia,-14.4739,-48.4597,27.85,28,35,0.77,BR,1694654070
368,nizhneudinsk,54.9076,99.0276,10.85,89,99,0.09,RU,1694654071
369,ocean shores,46.9737,-124.1563,21.27,88,0,4.63,US,1694654060
370,barghat,22.0333,79.7167,22.18,97,100,2.47,IN,1694654071
371,buseresere,-3.0236,31.8747,21.4,63,42,2.38,TZ,1694654072
372,sao vicente,-23.9631,-46.3919,34.04,48,91,2.25,BR,1694654072
373,les cayes,18.2,-73.75,27.49,77,100,1.21,HT,1694654072
374,las tablas,7.7667,-80.2833,26.76,99,100,0.81,PA,1694654072
375,oleiros,43.3333,-8.3167,18.2,90,0,0.89,ES,1694654072
376,belyayevka,51.3974,56.4096,12.19,63,87,1.51,RU,1694654073
377,saint-joseph,-21.3667,55.6167,19.21,82,28,4.12,RE,1694654073
378,bardai,11.65,7.2333,22.82,86,100,3.07,NG,1694654073
379,suwayr,30.1171,40.3893,25.52,36,0,3.93,SA,1694654073
380,lagos,6.5833,3.75,23.69,95,100,1.41,NG,1694653512
381,dwarka,22.2394,68.9678,27.74,76,100,4.82,IN,1694654074
382,pervomayskoye,43.919,46.7102,15.76,91,49,2.24,RU,1694654074
383,avarua,-21.2078,-159.775,25.03,69,40,7.2,CK,1694654074
384,chinde,26.8418,88.0763,19.96,87,24,1.48,NP,1694654074
385,kirensk,57.7853,108.1119,7.61,81,35,0.79,RU,1694654075
386,nikolayevsk-on-amure,53.1406,140.73,14.41,41,0,5.53,RU,1694654075
387,moletai,55.2333,25.4167,17.57,64,100,4.04,LT,1694654075
388,puerto madryn,-42.7692,-65.0385,13.75,41,100,6.54,AR,1694653943
389,hojai,26.0,92.8667,25.98,92,100,1.55,IN,1694654075
390,luderitz,-26.6481,15.1594,11.81,86,0,6.47,NA,1694654076
391,berezovyy,51.6667,135.7,15.9,41,57,3.54,RU,1694654076
392,plouzane,48.3833,-4.6167,13.03,96,100,1.54,FR,1694654076
393,sedhiou,12.7081,-15.5569,24.64,97,100,2.0,SN,1694654076
394,stocksbridge,53.4825,-1.5937,14.4,68,100,4.89,GB,1694654077
395,saint-philippe,-21.3585,55.7679,19.77,83,53,3.87,RE,1694654077
396,arsta,59.2978,18.0514,11.03,91,6,2.06,SE,1694654077
397,selfoss,63.9331,-20.9971,7.25,80,100,4.17,IS,1694654077
398,san fernando,15.0286,120.6898,28.97,74,93,1.21,PH,1694653882
399,naberera,-4.2,36.9333,14.54,85,12,4.93,TZ,1694654078
400,sabang,5.8933,95.3214,28.11,78,100,4.22,ID,1694653551
401,port augusta,-32.5,137.7667,26.66,17,100,11.52,AU,1694654078
402,carutapera,-1.195,-46.02,26.06,82,8,3.9,BR,1694654078
403,lauro de freitas,-12.8944,-38.3272,25.01,73,20,3.6,BR,1694654079
404,sirjan,29.452,55.6814,24.72,19,0,2.78,IR,1694654079
405,union,40.6334,-74.2663,25.5,79,1,0.89,US,1694654079
406,cidreira,-30.1811,-50.2056,15.28,93,100,6.32,BR,1694654079
407,ugoofaaru,5.6667,73.0,28.11,76,100,5.19,MV,1694654079
408,lamu,-2.2717,40.902,24.12,87,78,6.54,KE,1694654080
409,shalqar,47.8333,59.6,14.05,64,44,1.64,KZ,1694654080
410,dar chioukh,34.8964,3.4854,21.16,63,100,3.84,DZ,1694654080
411,traralgon,-38.1833,146.5333,25.74,25,79,0.19,AU,1694654080
412,bomadi,5.1593,5.9252,23.44,96,100,1.6,NG,1694654080
413,krasnyy chikoy,50.3643,108.7512,12.69,92,100,1.56,RU,1694654081
414,wriezen,52.7209,14.1343,14.24,92,17,3.58,DE,1694654081
415,alofi,-19.0595,-169.9187,26.94,61,40,5.66,NU,1694654081
416,la carlota,10.4233,122.9208,27.96,80,99,3.49,PH,1694654081
417,khash,28.2211,61.2158,22.86,18,11,1.99,IR,1694654082
418,ayas,40.0193,32.3322,13.37,40,0,2.3,TR,1694654082
419,kish,26.5578,54.0194,31.48,82,97,2.48,IR,1694654082
420,silute,55.3489,21.4831,16.67,97,100,5.25,LT,1694654082
421,ribeira brava,32.65,-17.0667,23.35,73,13,1.84,PT,1694654083
422,trinidad,-14.8333,-64.9,22.55,92,32,2.98,BO,1694654083
423,tazacorte,28.629,-17.9293,22.54,73,40,4.63,ES,1694654083
424,betare oya,5.6,14.0833,19.14,99,100,1.04,CM,1694654083
425,cromwell,41.5951,-72.6454,21.49,97,20,0.0,US,1694654083
426,vila do maio,15.1333,-23.2167,26.44,80,93,3.28,CV,1694654084
427,corinto,37.9407,22.9573,22.81,52,4,2.17,GR,1694654084
428,san luis ixcan,15.7872,-91.095,23.78,98,100,1.43,GT,1694654084
429,waddan,29.1614,16.139,22.32,55,0,4.34,LY,1694654084
430,suoyarvi,62.0833,32.35,14.16,98,100,2.79,RU,1694654084
431,santa ana,33.7456,-117.8678,28.69,68,0,4.63,US,1694653560
432,morondava,-20.2833,44.2833,21.93,83,2,4.02,MG,1694653825
433,dubbo,-32.25,148.6167,23.07,33,0,2.06,AU,1694654085
434,kotido,2.9806,34.1331,20.76,73,61,1.06,UG,1694654085
435,dera bugti,29.0307,69.151,28.65,50,5,1.37,PK,1694654086
436,fort st. john,56.2499,-120.8529,16.94,29,40,7.72,CA,1694654030
437,irymple,-34.25,142.1667,26.72,34,100,6.93,AU,1694654086
438,slupca,52.2873,17.8719,16.22,82,92,4.73,PL,1694654086
439,muisne,0.6,-80.0333,25.28,83,100,3.49,EC,1694654086
440,dzhankoy,45.7167,34.4,15.69,79,5,3.28,UA,1694654087
441,chernyshevskiy,63.0128,112.4714,3.24,67,99,4.29,RU,1694654087
442,hamilton,39.1834,-84.5333,18.87,65,0,1.54,US,1694653936
443,sirte,31.2089,16.5887,23.8,66,0,4.15,LY,1694654087
444,osorno,-40.5667,-73.15,10.17,87,100,6.17,CL,1694654087
445,imperia,43.9667,7.7833,18.25,98,3,2.62,IT,1694654088
446,poronaysk,49.2167,143.1167,18.28,52,100,3.12,RU,1694654088
447,alesund,62.4723,6.1549,9.31,96,25,3.6,NO,1694654088
448,kidal,18.4411,1.4078,33.69,27,51,2.1,ML,1694654088
449,abashiri,44.0213,144.2697,21.16,83,75,2.06,JP,1694654089
450,cockburn town,21.4612,-71.1419,29.22,76,40,5.94,TC,1694654089
451,cooper's town,26.8667,-77.5167,28.59,73,0,7.32,BS,1694654089
452,hasaki,35.7333,140.8333,31.22,76,37,3.34,JP,1694654089
453,taltal,-25.4,-70.4833,18.45,52,0,2.47,CL,1694654090
454,opuwo,-18.0607,13.84,18.97,26,0,1.17,NA,1694654090
455,muhos,64.808,25.9931,4.88,90,100,0.51,FI,1694654090
456,dzuunmod,48.2199,97.3744,7.97,75,94,1.5,MN,1694654090
457,weno,7.4515,151.8468,29.1,72,82,4.81,FM,1694654090
458,copiapo,-27.3667,-70.3333,17.49,37,1,0.57,CL,1694653876
459,prince george,53.9166,-122.753,19.03,38,0,4.12,CA,1694654090
460,ajdabiya,30.7554,20.2263,22.38,66,0,3.94,LY,1694654091
461,burrel,41.6103,20.0089,14.17,43,80,1.75,AL,1694654091
462,ust'-uda,54.1742,103.0304,12.24,71,43,1.45,RU,1694654092
463,baise city,23.8997,106.6133,21.83,99,100,1.02,CN,1694654052
464,medeiros neto,-17.3739,-40.2206,20.72,89,0,5.0,BR,1694654092
465,port hedland,-20.3167,118.5667,27.03,61,0,3.6,AU,1694654092
466,xilin hot,43.9667,116.0333,20.99,40,99,4.47,CN,1694654092
467,keban,38.7978,38.7336,15.87,48,0,2.13,TR,1694654093
468,richards bay,-28.783,32.0377,16.89,70,0,8.29,ZA,1694653889
469,kudahuvadhoo,2.6708,72.8944,27.65,78,99,4.17,MV,1694654093
470,gorontalo,0.5412,123.0595,29.14,64,100,3.57,ID,1694654093
471,psyzh,44.2331,42.0183,9.51,71,6,2.79,RU,1694654093
472,chonchi,-42.6128,-73.8092,10.62,97,100,3.99,CL,1694654094
473,priargunsk,50.3691,119.1012,13.12,42,100,3.27,RU,1694654094
474,dadukou,26.5479,101.7054,19.5,87,14,0.06,CN,1694654094
475,kittila,67.6647,24.8936,3.12,93,0,1.54,FI,1694654094
476,kerikeri,-35.2268,173.9474,19.39,67,3,1.34,NZ,1694654095
477,hobyo,5.3505,48.5268,24.96,85,54,10.19,SO,1694654095
478,porbandar,21.6422,69.6093,27.42,81,86,4.92,IN,1694654044
479,lazaro cardenas,17.9583,-102.2,29.14,80,17,4.03,MX,1694654095
480,vilyuchinsk,52.9306,158.4028,21.15,82,100,3.38,RU,1694654095
481,mandalgovi,45.7625,106.2708,16.47,42,100,3.35,MN,1694654096
482,talcahuano,-36.7167,-73.1167,10.82,100,100,11.32,CL,1694654096
483,yeongdong,36.175,127.7764,21.32,96,100,0.15,KR,1694654055
484,sampit,-2.5333,112.95,27.61,71,100,2.15,ID,1694654096
485,birao,10.2849,22.7882,20.47,95,92,1.54,CF,1694654097
486,sechura,-5.5569,-80.8222,19.95,77,3,7.64,PE,1694654097
487,celestun,20.8667,-90.4,28.82,74,21,6.39,MX,1694654097
488,vorkuta,67.5,64.0,8.59,88,34,6.29,RU,1694654097
489,dazhong,33.1997,120.4578,23.38,85,100,5.11,CN,1694654098
490,le port,-20.9373,55.2919,20.98,78,12,2.98,RE,1694654098
491,ust-tsilma,65.441,52.1498,12.3,81,100,3.99,RU,1694654098
492,kollam,8.8833,76.6,25.01,88,100,1.19,IN,1694654098
493,arrifes,37.7667,-25.7,22.73,88,40,2.06,PT,1694654098
494,atar,20.5169,-13.0499,36.17,22,98,4.45,MR,1694654099
495,maceio,-9.6658,-35.7353,22.69,100,75,1.54,BR,1694654013
496,lospalos,-8.5186,127.0025,25.1,67,82,5.56,TL,1694654099
497,ixtapa,20.7,-105.2,27.57,89,100,2.06,MX,1694654099
498,aitape,-3.1374,142.3475,28.94,72,95,1.02,PG,1694654099
499,pisco,-13.7,-76.2167,19.45,82,75,6.69,PE,1694654100
500,midland,31.9974,-102.0779,25.37,79,0,5.66,US,1694653851
501,baikunthpur,23.25,82.55,24.2,90,100,1.27,IN,1694654100
502,alghero,40.5589,8.3181,19.05,100,0,1.54,IT,1694654100
503,norfolk,42.1668,-71.2495,21.08,95,100,0.0,US,1694654026
504,zhangzhou,24.5133,117.6556,29.96,82,100,0.26,CN,1694654101
505,sol'-iletsk,51.1631,54.9918,14.45,60,100,2.82,RU,1694654101
506,wuwei,37.9281,102.6414,23.77,21,91,1.33,CN,1694654102
507,paonta sahib,30.45,77.6167,25.52,83,29,1.32,IN,1694654102
508,harstad,68.799,16.5293,5.64,91,93,8.05,NO,1694654102
509,as sulayyil,20.4607,45.5779,29.14,16,0,1.19,SA,1694654102
510,hwacheon,38.1061,127.7067,24.86,85,97,1.71,KR,1694654103
511,carahue,-38.7,-73.1667,9.5,93,100,5.49,CL,1694654103
512,lieksa,63.3167,30.0167,10.83,85,100,3.91,FI,1694654103
513,fort madison,40.6298,-91.3151,19.27,72,17,1.54,US,1694654104
514,yaren,-0.5472,166.916,28.41,69,10,0.62,NR,1694654104
515,tralee,52.2704,-9.7026,13.96,96,100,1.95,IE,1694654104
516,tateyama,34.9833,139.8667,27.32,79,6,3.59,JP,1694654031
517,aral,40.5156,81.2636,21.54,30,0,6.12,CN,1694654105
518,kindu,-2.95,25.95,20.97,97,100,1.03,CD,1694654105
519,ribas do rio pardo,-20.4431,-53.7592,21.39,85,100,6.55,BR,1694654105
520,cozumel,20.5083,-86.9458,30.04,86,75,3.13,MX,1694653918
521,pilar,-9.5972,-35.9567,21.96,94,18,0.93,BR,1694654106
522,cuero,29.0939,-97.2892,32.47,62,95,1.79,US,1694653672
523,tacoronte,28.4769,-16.4102,21.2,89,75,5.36,ES,1694654106
524,yinchuan,38.4681,106.2731,22.46,51,100,3.78,CN,1694654106
525,suntar,62.1444,117.6319,3.0,92,100,5.02,RU,1694654107
526,palapye,-22.546,27.1251,13.55,74,96,5.24,BW,1694654107
527,mana,5.6592,-53.7767,25.97,83,13,4.85,GF,1694654107
528,araguaina,-7.1911,-48.2072,29.77,26,9,1.23,BR,1694654107
529,vila franca do campo,37.7167,-25.4333,23.82,99,43,2.35,PT,1694654108
530,dawei,14.0833,98.2,23.84,97,100,1.44,MM,1694654108
531,ebaye,8.7748,167.7392,31.01,70,0,3.09,MH,1694654108
532,mogocha,53.7333,119.7667,10.6,48,94,2.37,RU,1694654108
533,hammerfest,70.6634,23.6821,6.25,81,100,6.17,NO,1694654109
534,ilhabela,-23.7781,-45.3581,25.17,58,2,2.64,BR,1694654109
535,leninskoye,41.7589,69.3864,15.09,36,0,1.33,KZ,1694654109
536,kavieng,-2.5744,150.7967,27.45,81,100,4.0,PG,1694654110
537,minab,27.1467,57.0801,31.33,62,34,1.42,IR,1694654110
538,bouarfa,32.53,-1.95,22.41,45,100,2.91,MA,1694654110
539,bacalar,18.6667,-88.3833,26.69,87,96,2.43,MX,1694654110
540,manggar,-2.8833,108.2667,28.45,70,38,6.88,ID,1694654110
541,totness,5.8833,-56.3167,26.27,83,30,5.21,SR,1694654111
542,uttarkashi,30.7333,78.45,22.28,90,42,1.15,IN,1694654111
543,kourou,5.1552,-52.6478,26.03,80,8,4.23,GF,1694654111
544,mata-utu,-13.2816,-176.1745,27.62,78,85,7.01,WF,1694654111
545,geraldton,-28.7667,114.6,20.23,60,75,3.6,AU,1694654044
546,carolina beach,34.0352,-77.8936,26.68,86,100,1.18,US,1694653930
547,bandarbeyla,9.4942,50.8122,25.96,75,83,11.2,SO,1694654112
548,pointe-noire,-4.7761,11.8635,22.44,89,4,1.14,CG,1694654112
549,eldorado at santa fe,35.5264,-105.9347,18.13,69,0,3.09,US,1694654112
550,villa independencia,-31.4559,-64.5132,9.5,33,4,1.46,AR,1694654113
551,carauari,-4.8828,-66.8958,25.95,72,0,1.19,BR,1694654113
552,ziro,27.6333,93.8333,17.41,91,7,0.7,IN,1694654113
553,sierra grande,-41.606,-65.3557,13.49,31,100,7.95,AR,1694654113
554,hithadhoo,-0.6,73.0833,28.03,76,96,6.3,MV,1694654114
555,shamakhi,40.6314,48.6414,13.63,76,24,2.16,AZ,1694654114
556,mossel bay,-34.1831,22.146,10.96,81,37,4.08,ZA,1694654105
557,manay,7.215,126.5397,28.38,74,100,1.71,PH,1694654114
558,emerald,-23.5333,148.1667,23.49,37,0,3.33,AU,1694653842
559,champerico,14.3,-91.9167,24.98,88,100,6.32,GT,1694654115
560,hun,29.1268,15.9477,22.34,54,0,3.29,LY,1694654115
561,standerton,-26.9337,29.2415,8.67,80,0,2.79,ZA,1694654115
562,sitangkai,4.6628,119.3928,27.26,73,100,3.34,PH,1694654116
563,skowhegan,44.7651,-69.7192,21.31,98,100,1.33,US,1694654116
564,oamaru,-45.0784,170.9801,17.36,47,6,6.32,NZ,1694654116
565,muroran,42.3172,140.9881,21.06,90,100,1.2,JP,1694654116
566,forbes,-33.3833,148.0167,27.18,29,3,1.51,AU,1694654116
567,oranjemund,-28.55,16.4333,11.01,93,3,1.59,NA,1694654117
568,rumuruti,0.267,36.5389,14.19,87,43,4.71,KE,1694654117
569,mejit,10.2753,170.8646,28.68,76,37,6.16,MH,1694654117
570,vigo,42.2328,-8.7226,21.4,76,0,0.51,ES,1694653547
571,ola,59.5833,151.2833,8.97,92,100,5.17,RU,1694654118
572,isangel,-19.55,169.2667,24.06,73,100,4.12,VU,1694654118
573,cannonvale,-20.2833,148.7,22.66,56,25,8.48,AU,1694654118
574,nantucket,41.2835,-70.0995,23.08,100,100,1.54,US,1694653848
575,bauchi,10.5,10.0,23.17,83,100,1.8,NG,1694654118
576,reyes,-14.3167,-67.3833,27.2,57,78,0.52,BO,1694654119
577,nabire,-3.3667,135.4833,24.74,92,100,0.87,ID,1694654119
578,golyshmanovo,56.3979,68.3728,8.78,88,90,1.6,RU,1694654119
579,brainerd,46.358,-94.2008,16.14,66,0,2.06,US,1694654119
580,arafat,21.3594,39.9664,30.8,34,8,2.41,SA,1694654119
581,hurricane,37.1753,-113.2899,27.26,51,85,0.89,US,1694654120
582,puerto deseado,-47.7503,-65.8938,8.87,60,33,8.28,AR,1694653562
583,sorsk,54.0033,90.2467,9.87,80,11,0.71,RU,1694654120
584,la sarre,48.8002,-79.1996,7.3,96,100,4.61,CA,1694653970
585,antofagasta,-23.65,-70.4,15.6,69,6,2.44,CL,1694653564
586,taksimo,56.3444,114.8794,9.27,81,98,1.8,RU,1694654121
587,cole harbour,44.6724,-63.4751,20.1,98,100,5.14,CA,1694654121
588,siwa oasis,29.2041,25.5195,25.33,52,0,3.87,EG,1694654121
589,inhambane,-23.865,35.3833,17.16,74,0,2.02,MZ,1694654121
590,chos malal,-37.3781,-70.2709,6.63,53,100,5.83,AR,1694654122
591,refahiye,39.9008,38.7667,5.74,90,0,1.54,TR,1694654122
592,ghat,24.9647,10.1728,27.12,20,0,1.48,LY,1694654122
593,krasnobrodskiy,54.1581,86.4486,9.97,83,97,1.14,RU,1694654122
